{"class":"VERSION","release":"3.22","rev":"3.22","proto_major":3,"proto_minor":14}
{"class":"DEVICES","devices":[{"class":"DEVICE","path":"/dev/ttyUSB0","driver":"Garmin USB binary","subtype":"3445: 2.50","activated":"2024-06-13T15:34:13.905Z","flags":1,"native":1,"bps":9600,"parity":"N","stopbits":1,"cycle":1.00}]}
{"class":"WATCH","enable":true,"json":false,"nmea":true,"raw":0,"scaled":false,"timing":false,"split24":false,"pps":false}
$GPGSV,3,1,12,03,78,064,38,78,78,255,36,04,57,185,43,77,46,046,30*74
$GPGSV,3,2,12,75,66,187,28,19,39,283,40,02,33,149,46,69,24,163,33*73
$GPGSV,3,3,12,31,29,080,31,28,22,045,25,21,18,144,39,06,28,307,34*7B
$GPZDA,153415.00,13,06,2024,00,00*61
$GPGGA,153415.00,5303.7201,N,00849.2110,E,1,12,1.04,5.05,M,44.478,M,,*60
$GPRMC,153415.00,A,5303.7201,N,00849.2110,E,0.0286,136.845,130624,2.7,E*6F
$GPGSA,A,3,3,78,4,77,75,19,2,69,31,28,21,6,2.0,1.0,1.7*35
$GPGBS,153415.00,12.313,9.586,12.823,,,,*4C
$GPGSV,3,1,12,03,78,064,38,78,78,255,35,04,57,185,43,77,46,046,31*76
$GPGSV,3,2,12,75,66,187,28,19,39,283,40,02,33,149,46,69,24,163,32*72
$GPGSV,3,3,12,31,29,080,32,28,22,045,24,21,18,144,39,06,28,307,34*79
$GPZDA,153416.00,13,06,2024,00,00*62
$GPGGA,153416.00,5303.7201,N,00849.2110,E,1,12,1.04,4.93,M,44.478,M,,*6D
$GPRMC,153416.00,A,5303.7201,N,00849.2110,E,0.1817,143.929,130624,2.7,E*66
$GPGSA,A,3,3,78,4,77,75,19,2,69,31,28,21,6,2.0,1.0,1.7*35
$GPGBS,153416.00,12.313,9.586,12.872,,,,*4B
$GPGSV,3,1,12,03,77,065,38,78,78,255,35,04,57,185,43,77,46,046,31*78
$GPGSV,3,2,12,75,66,187,28,19,39,283,40,02,33,149,46,69,24,163,33*73
$GPGSV,3,3,12,31,29,080,32,28,22,045,24,21,18,144,39,06,28,307,34*79
$GPZDA,153417.00,13,06,2024,00,00*63
$GPGGA,153417.00,5303.7201,N,00849.2109,E,1,12,1.04,4.88,M,44.478,M,,*6E
$GPRMC,153417.00,A,5303.7201,N,00849.2109,E,0.0227,126.289,130624,2.7,E*65
$GPGSA,A,3,3,78,4,77,75,19,2,69,31,28,21,6,2.0,1.0,1.7*35
$GPGBS,153417.00,12.313,9.586,12.917,,,,*48
$GPGSV,3,1,12,03,77,065,37,78,78,255,35,04,57,185,43,77,46,046,31*77
$GPGSV,3,2,12,75,66,187,28,19,39,283,39,02,33,149,46,69,24,163,32*7C
$GPGSV,3,3,12,31,29,080,32,28,22,045,23,21,18,144,39,06,28,307,34*7E
$GPZDA,153418.00,13,06,2024,00,00*6C
$GPGGA,153418.00,5303.7202,N,00849.2109,E,1,12,1.04,4.81,M,44.478,M,,*6B
$GPRMC,153418.00,A,5303.7202,N,00849.2109,E,0.0745,149.380,130624,2.7,E*69
$GPGSA,A,3,3,78,4,77,75,19,2,69,31,28,21,6,2.0,1.0,1.7*35
$GPGBS,153418.00,12.313,9.586,12.969,,,,*4E
$GPGSV,3,1,12,03,77,065,38,78,78,255,35,04,58,185,43,77,46,046,31*77
$GPGSV,3,2,12,75,66,187,27,19,39,283,39,02,33,149,46,69,24,163,32*73
$GPGSV,3,3,12,31,29,080,32,28,22,045,23,21,18,144,39,06,28,307,34*7E
$GPZDA,153419.00,13,06,2024,00,00*6D
$GPGGA,153419.00,5303.7202,N,00849.2109,E,1,12,1.04,4.67,M,44.478,M,,*62
$GPRMC,153419.00,A,5303.7202,N,00849.2109,E,0.5053,161.949,130624,2.7,E*68
$GPGSA,A,3,3,78,4,77,75,19,2,69,31,28,21,6,2.0,1.0,1.7*35
$GPGBS,153419.00,12.313,9.586,13.012,,,,*4B
$GPGSV,3,1,12,03,77,065,38,78,78,255,35,04,58,185,43,77,46,046,31*77
$GPGSV,3,2,12,75,66,187,27,19,39,283,39,02,33,149,46,69,24,163,32*73
$GPGSV,3,3,12,31,29,080,35,28,22,045,23,21,18,144,41,06,28,307,34*76
$GPZDA,153420.00,13,06,2024,00,00*67
$GPGGA,153420.00,5303.7200,N,00849.2109,E,1,12,1.04,4.65,M,44.478,M,,*68
$GPRMC,153420.00,A,5303.7200,N,00849.2109,E,0.3921,143.482,130624,2.7,E*60
$GPGSA,A,3,3,78,4,77,75,19,2,69,31,28,21,6,2.0,1.0,1.7*35
$GPGBS,153420.00,12.313,9.586,13.042,,,,*44
$GPGSV,3,1,12,03,77,065,38,78,78,255,35,04,58,185,43,77,46,046,27*70
$GPGSV,3,2,12,75,66,187,27,19,39,283,38,02,33,149,46,69,24,163,34*74
$GPGSV,3,3,12,31,29,080,34,28,22,045,23,21,18,144,42,06,28,307,34*74
$GPZDA,153421.00,13,06,2024,00,00*66
$GPGGA,153421.00,5303.7199,N,00849.2109,E,1,12,1.04,4.58,M,44.478,M,,*64
$GPRMC,153421.00,A,5303.7199,N,00849.2109,E,0.5226,175.542,130624,2.7,E*60
$GPGSA,A,3,3,78,4,77,75,19,2,69,31,28,21,6,2.0,1.0,1.7*35
$GPGBS,153421.00,12.313,9.586,13.064,,,,*41
$GPGSV,3,1,12,03,77,065,39,78,78,255,34,04,58,185,43,77,46,046,27*70
$GPGSV,3,2,12,75,66,187,26,19,39,283,39,02,33,149,46,69,24,163,34*74
$GPGSV,3,3,12,31,29,080,33,28,22,045,24,21,18,144,43,06,28,307,34*75
$GPZDA,153422.00,13,06,2024,00,00*65
$GPGGA,153422.00,5303.7197,N,00849.2109,E,1,12,1.04,4.52,M,44.478,M,,*63
$GPRMC,153422.00,A,5303.7197,N,00849.2109,E,0.8328,175.166,130624,2.7,E*6D
$GPGSA,A,3,3,78,4,77,75,19,2,69,31,28,21,6,2.0,1.0,1.7*35
$GPGBS,153422.00,12.313,9.586,13.070,,,,*47
$GPGSV,3,1,12,03,77,065,38,78,78,255,35,04,58,185,42,77,46,046,29*7F
$GPGSV,3,2,12,75,66,187,26,19,39,283,38,02,33,149,46,69,24,163,35*74
$GPGSV,3,3,12,31,29,080,29,28,22,045,24,21,18,144,43,06,28,307,34*7E
$GPZDA,153423.00,13,06,2024,00,00*64
$GPGGA,153423.00,5303.7194,N,00849.2109,E,1,12,1.04,4.42,M,44.478,M,,*60
$GPRMC,153423.00,A,5303.7194,N,00849.2109,E,0.7291,171.562,130624,2.7,E*67
$GPGSA,A,3,3,78,4,77,75,19,2,69,31,28,21,6,2.0,1.0,1.7*35
$GPGBS,153423.00,12.313,9.586,13.101,,,,*41
$GPGSV,3,1,12,03,77,065,39,78,78,255,35,04,58,185,42,77,46,046,31*77
$GPGSV,3,2,12,75,66,187,26,19,39,283,38,02,33,149,46,69,24,163,34*75
$GPGSV,3,3,12,31,29,080,28,28,22,045,25,21,18,144,43,06,28,307,34*7E
$GPZDA,153424.00,13,06,2024,00,00*63
$GPGGA,153424.00,5303.7191,N,00849.2108,E,1,12,1.04,4.37,M,44.478,M,,*61
$GPRMC,153424.00,A,5303.7191,N,00849.2108,E,0.6744,167.668,130624,2.7,E*66
$GPGSA,A,3,3,78,4,77,75,19,2,69,31,28,21,6,2.0,1.0,1.7*35
$GPGBS,153424.00,12.313,9.586,13.118,,,,*4E
$GPGSV,3,1,12,03,77,065,38,78,78,255,35,04,58,185,43,77,46,046,33*75
$GPGSV,3,2,12,75,66,187,26,19,39,283,38,02,33,149,46,69,24,163,35*74
$GPGSV,3,3,12,31,29,080,29,28,22,045,25,21,18,144,44,06,28,307,34*78
$GPZDA,153425.00,13,06,2024,00,00*62
$GPGGA,153425.00,5303.7188,N,00849.2108,E,1,12,1.04,4.33,M,44.478,M,,*6C
$GPRMC,153425.00,A,5303.7188,N,00849.2108,E,0.5680,170.608,130624,2.7,E*65
$GPGSA,A,3,3,78,4,77,75,19,2,69,31,28,21,6,2.0,1.0,1.7*35
$GPGBS,153425.00,12.313,9.586,13.097,,,,*49
$GPGSV,3,1,12,03,77,065,38,78,78,255,35,04,58,185,43,77,46,046,32*74
$GPGSV,3,2,12,75,66,187,27,19,39,283,37,02,33,149,46,69,24,163,35*7A
$GPGSV,3,3,12,31,29,080,30,28,22,045,25,21,18,144,45,06,28,307,34*71
$GPZDA,153426.00,13,06,2024,00,00*61
$GPGGA,153426.00,5303.7186,N,00849.2107,E,1,12,1.04,4.37,M,44.478,M,,*6A
$GPRMC,153426.00,A,5303.7186,N,00849.2107,E,0.5055,163.257,130624,2.7,E*65
$GPGSA,A,3,3,78,4,77,75,19,2,69,31,28,21,6,2.0,1.0,1.7*35
$GPGBS,153426.00,12.313,9.586,13.067,,,,*45
$GPGSV,3,1,12,03,77,065,39,78,78,255,35,04,58,185,43,77,46,046,33*74
$GPGSV,3,2,12,75,66,187,28,19,39,283,37,02,33,149,45,12,05,344,26*7C
$GPGSV,3,3,12,69,24,163,33,31,29,080,33,28,22,045,25,21,18,144,45*70
$GPZDA,153427.00,13,06,2024,00,00*60
$GPGGA,153427.00,5303.7184,N,00849.2107,E,1,11,1.04,4.34,M,44.478,M,,*69
$GPRMC,153427.00,A,5303.7184,N,00849.2107,E,0.5717,162.466,130624,2.7,E*62
$GPGSA,A,3,3,78,4,77,75,19,2,69,31,28,21,,2.0,1.0,1.7*03
$GPGBS,153427.00,12.313,9.586,13.025,,,,*42
$GPGSV,3,1,12,03,77,065,39,78,78,255,34,04,58,185,43,77,46,046,34*72
$GPGSV,3,2,12,75,66,187,28,19,39,283,37,02,33,149,46,12,05,344,25*7C
$GPGSV,3,3,12,69,24,163,33,31,29,080,34,28,22,045,25,21,18,144,45*77
$GPZDA,153428.00,13,06,2024,00,00*6F
$GPGGA,153428.00,5303.7182,N,00849.2106,E,1,11,1.04,4.32,M,44.478,M,,*67
$GPRMC,153428.00,A,5303.7182,N,00849.2106,E,0.6734,164.815,130624,2.7,E*66
$GPGSA,A,3,3,78,4,77,75,19,2,69,31,28,21,,2.0,1.0,1.7*03
$GPGBS,153428.00,12.313,9.586,12.986,,,,*4C
$GPGSV,3,1,12,03,77,065,39,78,78,255,34,04,58,185,43,77,46,046,34*72
$GPGSV,3,2,12,75,66,187,28,19,39,283,37,02,33,149,45,12,05,344,24*7E
$GPGSV,3,3,12,69,24,163,33,31,29,080,33,28,22,045,26,21,18,144,45*73
$GPZDA,153429.00,13,06,2024,00,00*6E
$GPGGA,153429.00,5303.7180,N,00849.2106,E,1,11,1.04,4.31,M,44.478,M,,*67
$GPRMC,153429.00,A,5303.7180,N,00849.2106,E,0.8591,166.278,130624,2.7,E*65
$GPGSA,A,3,3,78,4,77,75,19,2,69,31,28,21,,2.0,1.0,1.7*03
$GPGBS,153429.00,12.313,9.586,12.951,,,,*47
$GPGSV,3,1,12,03,77,065,39,78,78,255,34,04,58,185,43,77,46,046,35*73
$GPGSV,3,2,12,75,66,187,27,19,39,283,37,02,33,149,46,12,05,344,24*72
$GPGSV,3,3,12,69,24,163,33,31,29,080,30,28,22,045,27,21,18,144,46*72
$GPZDA,153430.00,13,06,2024,00,00*66
$GPGGA,153430.00,5303.7177,N,00849.2105,E,1,11,1.04,4.32,M,44.478,M,,*67
$GPRMC,153430.00,A,5303.7177,N,00849.2105,E,0.7342,169.434,130624,2.7,E*60
$GPGSA,A,3,3,78,4,77,75,19,2,69,31,28,21,,2.0,1.0,1.7*03
$GPGBS,153430.00,12.313,9.586,12.913,,,,*49
$GPGSV,3,1,12,03,77,065,39,78,78,255,35,04,58,185,43,77,46,046,35*72
$GPGSV,3,2,12,74,39,321,18,75,66,187,27,19,39,283,37,02,33,149,46*71
$GPGSV,3,3,12,12,05,344,25,69,24,163,32,31,29,080,29,28,22,045,23*74
$GPZDA,153431.00,13,06,2024,00,00*67
$GPGGA,153431.00,5303.7175,N,00849.2105,E,1,10,1.04,4.27,M,44.478,M,,*61
$GPRMC,153431.00,A,5303.7175,N,00849.2105,E,0.5477,160.273,130624,2.7,E*6C
$GPGSA,A,3,3,78,4,77,75,19,2,69,31,28,,,2.0,1.0,1.7*00
$GPGBS,153431.00,12.313,9.586,12.876,,,,*4A
$GPGSV,3,1,12,03,77,065,39,78,78,255,35,04,58,185,43,77,46,046,36*71
$GPGSV,3,2,12,74,39,321,18,75,66,187,27,19,39,283,37,02,33,149,46*71
$GPGSV,3,3,12,12,05,344,26,69,24,163,31,31,29,080,29,28,22,045,22*75
$GPZDA,153432.00,13,06,2024,00,00*64
$GPGGA,153432.00,5303.7173,N,00849.2106,E,1,10,1.04,4.23,M,44.478,M,,*63
$GPRMC,153432.00,A,5303.7173,N,00849.2106,E,0.6986,164.479,130624,2.7,E*62
$GPGSA,A,3,3,78,4,77,75,19,2,69,31,28,,,2.0,1.0,1.7*00
$GPGBS,153432.00,12.313,9.586,12.842,,,,*4E
$GPGSV,3,1,12,03,77,065,39,78,78,255,35,04,58,185,43,77,46,046,36*71
$GPGSV,3,2,12,74,39,321,18,75,66,187,27,19,39,283,37,02,33,149,46*71
$GPGSV,3,3,12,12,05,344,26,69,24,163,30,31,29,080,28,28,22,045,23*74
$GPZDA,153433.00,13,06,2024,00,00*65
$GPGGA,153433.00,5303.7171,N,00849.2107,E,1,10,1.04,4.13,M,44.478,M,,*62
$GPRMC,153433.00,A,5303.7171,N,00849.2107,E,0.9562,161.374,130624,2.7,E*66
$GPGSA,A,3,3,78,4,77,75,19,2,69,31,28,,,2.0,1.0,1.7*00
$GPGBS,153433.00,12.313,9.586,12.811,,,,*49
$GPGSV,3,1,12,03,77,065,39,78,78,255,34,04,58,185,43,77,46,046,36*70
$GPGSV,3,2,12,74,39,321,18,75,66,187,27,19,39,283,37,02,33,149,46*71
$GPGSV,3,3,12,12,05,344,27,69,24,163,30,31,29,080,29,28,22,045,23*74
$GPZDA,153434.00,13,06,2024,00,00*62
$GPGGA,153434.00,5303.7168,N,00849.2107,E,1,10,1.04,4.07,M,44.478,M,,*68
$GPRMC,153434.00,A,5303.7168,N,00849.2107,E,0.9706,162.256,130624,2.7,E*6B
$GPGSA,A,3,3,78,4,77,75,19,2,69,31,28,,,2.0,1.0,1.7*00
$GPGBS,153434.00,12.313,9.586,12.783,,,,*4A
$GPGSV,3,1,12,03,77,065,39,78,78,255,34,04,58,185,43,77,46,046,36*70
$GPGSV,3,2,12,74,39,321,18,75,66,187,27,19,39,283,37,02,33,149,46*71
$GPGSV,3,3,12,12,05,343,27,69,24,163,33,31,29,080,29,28,22,045,22*71
$GPZDA,153435.00,13,06,2024,00,00*63
$GPGGA,153435.00,5303.7165,N,00849.2108,E,1,10,1.04,4.07,M,44.478,M,,*6B
$GPRMC,153435.00,A,5303.7165,N,00849.2108,E,1.0046,169.397,130624,2.7,E*64
$GPGSA,A,3,3,78,4,77,75,19,2,69,31,28,,,2.0,1.0,1.7*00
$GPGBS,153435.00,12.313,9.586,12.752,,,,*47
$GPGSV,3,1,12,03,77,065,39,78,78,255,34,04,58,185,43,77,46,046,36*70
$GPGSV,3,2,12,74,39,321,18,75,66,187,27,19,39,283,37,02,33,149,46*71
$GPGSV,3,3,12,12,05,343,28,69,24,163,34,31,29,080,29,28,22,045,23*78
$GPZDA,153436.00,13,06,2024,00,00*60
$GPGGA,153436.00,5303.7162,N,00849.2107,E,1,10,1.04,4.04,M,44.478,M,,*63
$GPRMC,153436.00,A,5303.7162,N,00849.2107,E,0.8959,171.159,130624,2.7,E*68
$GPGSA,A,3,3,78,4,77,75,19,2,69,31,28,,,2.0,1.0,1.7*00
$GPGBS,153436.00,12.313,9.586,12.723,,,,*42
$GPGSV,3,1,12,03,77,065,39,78,78,255,34,04,58,185,43,77,46,046,35*73
$GPGSV,3,2,12,74,39,321,19,75,66,187,27,19,39,283,37,02,33,149,46*70
$GPGSV,3,3,12,12,05,343,27,69,24,163,34,31,29,080,25,28,22,045,22*7A
$GPZDA,153437.00,13,06,2024,00,00*61
$GPGGA,153437.00,5303.7159,N,00849.2107,E,1,10,1.04,4.02,M,44.478,M,,*6C
$GPRMC,153437.00,A,5303.7159,N,00849.2107,E,0.8722,175.077,130624,2.7,E*6A
$GPGSA,A,3,3,78,4,77,75,19,2,69,31,28,,,2.0,1.0,1.7*00
$GPGBS,153437.00,12.313,9.586,12.694,,,,*4E
$GPGSV,3,1,12,03,77,065,39,78,78,255,34,04,58,185,43,77,46,046,35*73
$GPGSV,3,2,12,74,39,321,19,75,66,187,27,19,39,283,38,02,33,149,47*7E
$GPGSV,3,3,12,12,05,343,27,69,24,163,33,31,29,080,25,28,22,045,24*7B
$GPZDA,153438.00,13,06,2024,00,00*6E
$GPGGA,153438.00,5303.7156,N,00849.2107,E,1,10,1.04,3.97,M,44.478,M,,*67
$GPRMC,153438.00,A,5303.7156,N,00849.2107,E,0.7804,168.696,130624,2.7,E*6B
$GPGSA,A,3,3,78,4,77,75,19,2,69,31,28,,,2.0,1.0,1.7*00
$GPGBS,153438.00,12.313,9.586,12.661,,,,*4B
$GPGSV,3,1,12,03,77,065,38,78,78,255,35,04,58,185,43,77,46,046,33*75
$GPGSV,3,2,12,74,39,321,19,75,66,187,27,19,39,283,38,02,33,149,47*7E
$GPGSV,3,3,12,12,05,343,27,69,24,163,32,31,29,080,24,28,22,045,23*7C
$GPZDA,153439.00,13,06,2024,00,00*6F
$GPGGA,153439.00,5303.7154,N,00849.2108,E,1,10,1.04,3.91,M,44.478,M,,*6D
$GPRMC,153439.00,A,5303.7154,N,00849.2108,E,0.7993,170.480,130624,2.7,E*64
$GPGSA,A,3,3,78,4,77,75,19,2,69,31,28,,,2.0,1.0,1.7*00
$GPGBS,153439.00,12.313,9.586,12.642,,,,*4B
$GPGSV,3,1,12,03,77,065,38,78,78,255,35,04,58,185,43,77,46,046,33*75
$GPGSV,3,2,12,74,39,321,19,75,66,187,27,19,39,283,38,02,33,149,47*7E
$GPGSV,3,3,12,12,05,343,27,69,24,163,32,31,29,080,25,28,22,045,23*7D
$GPZDA,153440.00,13,06,2024,00,00*61
$GPGGA,153440.00,5303.7152,N,00849.2108,E,1,10,1.04,3.90,M,44.478,M,,*64
$GPRMC,153440.00,A,5303.7152,N,00849.2108,E,0.7733,164.568,130624,2.7,E*6A
$GPGSA,A,3,3,78,4,77,75,19,2,69,31,28,,,2.0,1.0,1.7*00
$GPGBS,153440.00,12.313,9.586,12.625,,,,*44
$GPGSV,3,1,12,03,77,065,38,78,78,255,34,04,58,185,43,77,46,046,33*74
$GPGSV,3,2,12,74,39,321,20,75,66,187,28,19,39,283,38,02,33,149,46*7A
$GPGSV,3,3,12,12,05,343,25,69,24,163,32,31,29,080,26,28,22,045,23*7C
$GPZDA,153441.00,13,06,2024,00,00*60
$GPGGA,153441.00,5303.7150,N,00849.2109,E,1,10,1.04,3.87,M,44.478,M,,*60
$GPRMC,153441.00,A,5303.7150,N,00849.2109,E,0.7580,163.600,130624,2.7,E*68
$GPGSA,A,3,3,78,4,77,75,19,2,69,31,28,,,2.0,1.0,1.7*00
$GPGBS,153441.00,12.313,9.586,12.615,,,,*46
$GPGSV,3,1,12,03,77,065,39,78,78,255,34,04,58,185,43,77,46,046,33*75
$GPGSV,3,2,12,74,39,321,20,75,66,187,27,19,39,283,38,02,33,149,46*75
$GPGSV,3,3,12,12,05,343,25,69,24,163,34,31,29,080,28,28,22,045,24*73
$GPZDA,153442.00,13,06,2024,00,00*63
$GPGGA,153442.00,5303.7147,N,00849.2109,E,1,10,1.04,3.82,M,44.478,M,,*60
$GPRMC,153442.00,A,5303.7147,N,00849.2109,E,0.8292,157.606,130624,2.7,E*67
$GPGSA,A,3,3,78,4,77,75,19,2,69,31,28,,,2.0,1.0,1.7*00
$GPGBS,153442.00,12.313,9.586,12.595,,,,*4E
$GPGSV,3,1,12,03,77,065,39,78,78,255,34,04,58,185,42,77,46,046,33*74
$GPGSV,3,2,12,74,39,321,19,75,66,187,27,19,39,283,38,02,33,149,46*7F
$GPGSV,3,3,12,12,05,343,25,69,24,163,35,31,29,080,28,28,22,045,24*72
$GPZDA,153443.00,13,06,2024,00,00*62
$GPGGA,153443.00,5303.7144,N,00849.2110,E,1,10,1.04,3.73,M,44.478,M,,*64
$GPRMC,153443.00,A,5303.7144,N,00849.2110,E,0.8263,166.572,130624,2.7,E*61
$GPGSA,A,3,3,78,4,77,75,19,2,69,31,28,,,2.0,1.0,1.7*00
$GPGBS,153443.00,12.313,9.586,12.594,,,,*4E
$GPGSV,3,1,12,03,77,065,39,78,78,255,34,04,58,185,42,77,46,046,33*74
$GPGSV,3,2,12,74,39,321,19,75,66,187,27,19,39,283,38,02,33,149,46*7F
$GPGSV,3,3,12,12,05,343,28,69,24,163,34,31,29,080,29,28,22,045,24*7F
$GPZDA,153444.00,13,06,2024,00,00*65
$GPGGA,153444.00,5303.7142,N,00849.2111,E,1,10,1.04,3.77,M,44.478,M,,*60
$GPRMC,153444.00,A,5303.7142,N,00849.2111,E,0.8868,163.895,130624,2.7,E*61
$GPGSA,A,3,3,78,4,77,75,19,2,69,31,28,,,2.0,1.0,1.7*00
$GPGBS,153444.00,12.313,9.586,12.593,,,,*4E
$GPGSV,3,1,12,03,77,065,39,78,78,255,34,04,58,185,42,77,46,046,32*75
$GPGSV,3,2,12,74,39,321,19,75,66,187,27,19,39,283,38,02,33,149,46*7F
$GPGSV,3,3,12,12,05,343,28,69,24,163,33,31,29,080,30,28,22,045,23*77
$GPZDA,153445.00,13,06,2024,00,00*64
$GPGGA,153445.00,5303.7139,N,00849.2111,E,1,10,1.04,3.78,M,44.478,M,,*62
$GPRMC,153445.00,A,5303.7139,N,00849.2111,E,1.0085,174.481,130624,2.7,E*61
$GPGSA,A,3,3,78,4,77,75,19,2,69,31,28,,,2.0,1.0,1.7*00
$GPGBS,153445.00,12.313,9.586,12.591,,,,*4D
$GPGSV,3,1,12,03,77,065,39,78,78,255,35,04,58,185,42,77,46,046,32*74
$GPGSV,3,2,12,74,39,321,20,75,66,187,27,19,39,283,38,02,33,149,46*75
$GPGSV,3,3,12,12,05,343,29,69,24,163,33,31,29,080,29,28,22,045,23*7E
$GPZDA,153446.00,13,06,2024,00,00*67
$GPGGA,153446.00,5303.7136,N,00849.2112,E,1,10,1.04,3.73,M,44.478,M,,*66
$GPRMC,153446.00,A,5303.7136,N,00849.2112,E,0.8286,171.315,130624,2.7,E*69
$GPGSA,A,3,3,78,4,77,75,19,2,69,31,28,,,2.0,1.0,1.7*00
$GPGBS,153446.00,12.313,9.586,12.584,,,,*4A
$GPGSV,3,1,12,03,77,065,38,78,78,255,35,04,58,185,42,77,46,046,33*74
$GPGSV,3,2,12,74,40,321,20,75,66,187,27,19,39,283,38,02,33,149,46*7B
$GPGSV,3,3,12,12,05,343,30,69,24,163,33,31,29,080,30,28,22,045,24*79
$GPZDA,153447.00,13,06,2024,00,00*66
$GPGGA,153447.00,5303.7134,N,00849.2112,E,1,10,1.04,3.68,M,44.478,M,,*6F
$GPRMC,153447.00,A,5303.7134,N,00849.2112,E,0.8098,170.929,130624,2.7,E*63
$GPGSA,A,3,3,78,4,77,75,19,2,69,31,28,,,2.0,1.0,1.7*00
$GPGBS,153447.00,12.313,9.586,12.587,,,,*48
$GPGSV,3,1,12,03,77,065,38,78,78,255,35,04,58,185,43,77,46,046,33*75
$GPGSV,3,2,12,74,40,321,20,75,66,187,28,19,39,283,38,02,33,149,47*75
$GPGSV,3,3,12,12,05,343,30,69,24,163,33,31,29,080,33,28,22,045,25*7B
$GPZDA,153448.00,13,06,2024,00,00*69
$GPGGA,153448.00,5303.7132,N,00849.2113,E,1,10,1.04,3.59,M,44.478,M,,*65
$GPRMC,153448.00,A,5303.7132,N,00849.2113,E,0.7820,164.622,130624,2.7,E*6E
$GPGSA,A,3,3,78,4,77,75,19,2,69,31,28,,,2.0,1.0,1.7*00
$GPGBS,153448.00,12.313,9.586,12.568,,,,*46
$GPGSV,3,1,12,03,77,065,39,78,78,255,35,04,58,185,43,77,46,046,34*73
$GPGSV,3,2,12,74,40,321,20,75,66,187,28,19,39,283,38,02,33,149,46*74
$GPGSV,3,3,12,12,05,343,30,69,24,163,33,31,29,080,33,28,22,045,25*7B
$GPZDA,153449.00,13,06,2024,00,00*68
$GPGGA,153449.00,5303.7130,N,00849.2113,E,1,10,1.04,3.54,M,44.478,M,,*6B
$GPRMC,153449.00,A,5303.7130,N,00849.2113,E,0.8724,164.882,130624,2.7,E*6D
$GPGSA,A,3,3,78,4,77,75,19,2,69,31,28,,,2.0,1.0,1.7*00
$GPGBS,153449.00,12.313,9.586,12.546,,,,*4B
$GPGSV,3,1,12,03,77,065,39,78,78,255,35,04,58,185,42,77,46,046,34*72
$GPGSV,3,2,12,74,40,321,20,75,66,187,27,19,39,283,38,02,33,149,46*7B
$GPGSV,3,3,12,12,05,343,31,69,24,163,33,31,29,080,32,28,22,045,25*7B
$GPZDA,153450.00,13,06,2024,00,00*60
$GPGGA,153450.00,5303.7127,N,00849.2114,E,1,10,1.04,3.57,M,44.478,M,,*61
$GPRMC,153450.00,A,5303.7127,N,00849.2114,E,1.1823,174.953,130624,2.7,E*68
$GPGSA,A,3,3,78,4,77,75,19,2,69,31,28,,,2.0,1.0,1.7*00
$GPGBS,153450.00,12.313,9.586,12.546,,,,*43
$GPGSV,3,1,12,03,77,065,39,78,78,255,35,04,58,185,42,77,46,046,35*73
$GPGSV,3,2,12,74,40,321,20,75,66,187,27,19,39,283,38,02,33,149,46*7B
$GPGSV,3,3,12,12,05,343,31,69,24,163,34,31,29,080,32,28,22,045,25*7C
$GPZDA,153451.00,13,06,2024,00,00*61
$GPGGA,153451.00,5303.7123,N,00849.2115,E,1,10,1.04,3.58,M,44.478,M,,*6A
$GPRMC,153451.00,A,5303.7123,N,00849.2115,E,1.2105,164.678,130624,2.7,E*65
$GPGSA,A,3,3,78,4,77,75,19,2,69,31,28,,,2.0,1.0,1.7*00
$GPGBS,153451.00,12.313,9.586,12.543,,,,*47
$GPGSV,3,1,12,03,77,065,39,78,78,255,35,04,58,185,42,77,46,046,36*70
$GPGSV,3,2,12,74,40,321,20,75,66,187,27,19,39,283,38,02,33,149,46*7B
$GPGSV,3,3,12,12,05,343,31,69,24,163,33,31,29,080,32,28,22,045,25*7B
$GPZDA,153452.00,13,06,2024,00,00*62
$GPGGA,153452.00,5303.7120,N,00849.2116,E,1,10,1.04,3.59,M,44.478,M,,*68
$GPRMC,153452.00,A,5303.7120,N,00849.2116,E,1.2074,169.496,130624,2.7,E*6E
$GPGSA,A,3,3,78,4,77,75,19,2,69,31,28,,,2.0,1.0,1.7*00
$GPGBS,153452.00,12.313,9.586,12.542,,,,*45
$GPGSV,3,1,12,03,77,065,38,78,78,255,35,04,58,185,42,77,45,046,36*72
$GPGSV,3,2,12,74,40,321,20,75,66,187,27,19,39,283,38,02,33,149,46*7B
$GPGSV,3,3,12,12,05,343,31,69,24,163,29,31,29,080,31,28,22,045,25*73
$GPZDA,153453.00,13,06,2024,00,00*63
$GPGGA,153453.00,5303.7116,N,00849.2117,E,1,10,1.04,3.61,M,44.478,M,,*66
$GPRMC,153453.00,A,5303.7116,N,00849.2117,E,1.2830,167.528,130624,2.7,E*69
$GPGSA,A,3,3,78,4,77,75,19,2,69,31,28,,,2.0,1.0,1.7*00
$GPGBS,153453.00,12.313,9.586,12.553,,,,*44
$GPGSV,3,1,12,03,77,065,38,78,78,255,35,04,58,185,42,77,45,046,36*72
$GPGSV,3,2,12,74,40,321,20,75,66,187,27,19,39,283,38,02,33,149,46*7B
$GPGSV,3,3,12,12,05,343,31,69,24,163,30,31,29,080,32,28,22,045,26*7B
$GPZDA,153454.00,13,06,2024,00,00*64
$GPGGA,153454.00,5303.7113,N,00849.2119,E,1,10,1.04,3.63,M,44.478,M,,*68
$GPRMC,153454.00,A,5303.7113,N,00849.2119,E,1.3520,173.301,130624,2.7,E*60
$GPGSA,A,3,3,78,4,77,75,19,2,69,31,28,,,2.0,1.0,1.7*00
$GPGBS,153454.00,12.313,9.586,12.563,,,,*40
$GPGSV,3,1,12,03,77,065,38,78,78,257,35,04,58,185,42,77,45,046,36*70
$GPGSV,3,2,12,74,40,321,20,75,66,187,27,19,39,283,38,02,33,149,46*7B
$GPGSV,3,3,12,12,05,343,31,69,24,163,33,31,29,080,32,28,22,045,27*79
$GPZDA,153455.00,13,06,2024,00,00*65
$GPGGA,153455.00,5303.7109,N,00849.2120,E,1,10,1.04,3.64,M,44.478,M,,*6F
$GPRMC,153455.00,A,5303.7109,N,00849.2120,E,1.3755,174.860,130624,2.7,E*6B
$GPGSA,A,3,3,78,4,77,75,19,2,69,31,28,,,2.0,1.0,1.7*00
$GPGBS,153455.00,12.313,9.586,12.571,,,,*42
$GPGSV,3,1,12,03,77,065,38,78,78,257,35,04,58,185,42,77,45,046,36*70
$GPGSV,3,2,12,74,40,321,20,75,66,187,27,19,39,283,38,02,33,149,46*7B
$GPGSV,3,3,12,12,05,343,32,69,24,163,32,31,29,080,33,28,22,045,26*7B
$GPZDA,153456.00,13,06,2024,00,00*66
$GPGGA,153456.00,5303.7105,N,00849.2121,E,1,10,1.04,3.66,M,44.478,M,,*63
$GPRMC,153456.00,A,5303.7105,N,00849.2121,E,1.1804,171.312,130624,2.7,E*67
$GPGSA,A,3,3,78,4,77,75,19,2,69,31,28,,,2.0,1.0,1.7*00
$GPGBS,153456.00,12.313,9.586,12.578,,,,*48
$GPGSV,3,1,12,03,77,065,38,78,78,257,35,04,58,185,42,77,45,046,36*70
$GPGSV,3,2,12,74,40,321,20,75,66,187,27,19,39,283,37,02,33,149,47*75
$GPGSV,3,3,12,12,05,343,32,69,24,163,31,31,29,080,34,21,18,145,46*78
$GPZDA,153457.00,13,06,2024,00,00*67
$GPGGA,153457.00,5303.7103,N,00849.2122,E,1,10,1.04,3.59,M,44.478,M,,*6B
$GPRMC,153457.00,A,5303.7103,N,00849.2122,E,1.1344,163.637,130624,2.7,E*6D
$GPGSA,A,3,3,78,4,77,75,19,2,69,31,21,,,2.0,1.0,1.7*09
$GPGBS,153457.00,12.313,9.586,12.583,,,,*4D
$GPGSV,3,1,12,03,77,065,38,78,78,257,35,04,58,185,42,77,45,046,36*70
$GPGSV,3,2,12,74,40,321,20,75,66,187,27,19,39,283,38,02,33,149,47*7A
$GPGSV,3,3,12,12,05,343,32,69,24,163,26,31,29,080,36,21,18,145,46*7C
$GPZDA,153458.00,13,06,2024,00,00*68
$GPGGA,153458.00,5303.7100,N,00849.2124,E,1,10,1.04,3.56,M,44.478,M,,*6E
$GPRMC,153458.00,A,5303.7100,N,00849.2124,E,1.2155,167.794,130624,2.7,E*6A
$GPGSA,A,3,3,78,4,77,75,19,2,69,31,21,,,2.0,1.0,1.7*09
$GPGBS,153458.00,12.313,9.586,12.588,,,,*49
$GPGSV,3,1,12,03,77,065,39,78,78,257,35,04,58,185,42,77,45,046,36*71
$GPGSV,3,2,12,74,40,321,20,75,66,187,27,19,39,283,38,02,33,149,47*7A
$GPGSV,3,3,12,12,05,343,31,69,24,163,29,31,29,080,35,21,18,145,46*73
$GPZDA,153459.00,13,06,2024,00,00*69
$GPGGA,153459.00,5303.7097,N,00849.2126,E,1,10,1.04,3.51,M,44.478,M,,*65
$GPRMC,153459.00,A,5303.7097,N,00849.2126,E,1.2850,169.264,130624,2.7,E*6E
$GPGSA,A,3,3,78,4,77,75,19,2,69,31,21,,,2.0,1.0,1.7*09
$GPGBS,153459.00,12.313,9.586,12.583,,,,*43
$GPGSV,3,1,12,03,77,065,39,78,78,257,35,04,58,185,42,77,45,046,36*71
$GPGSV,3,2,12,74,40,321,20,75,66,187,27,19,39,283,38,02,33,149,47*7A
$GPGSV,3,3,12,12,05,343,31,69,24,163,29,31,29,080,35,21,18,145,46*73
$GPZDA,153500.00,13,06,2024,00,00*64
$GPGGA,153500.00,5303.7094,N,00849.2127,E,1,10,1.04,3.43,M,44.478,M,,*69
$GPRMC,153500.00,A,5303.7094,N,00849.2127,E,1.2887,167.844,130624,2.7,E*6D
$GPGSA,A,3,3,78,4,77,75,19,2,69,31,21,,,2.0,1.0,1.7*09
$GPGBS,153500.00,12.313,9.586,12.577,,,,*45
$GPGSV,3,1,12,03,77,065,39,78,78,257,35,04,58,185,42,77,45,046,36*71
$GPGSV,3,2,12,74,40,321,20,75,66,187,27,19,39,283,38,02,33,149,47*7A
$GPGSV,3,3,12,12,05,343,30,69,24,163,28,31,29,080,35,21,18,145,46*73
$GPZDA,153501.00,13,06,2024,00,00*65
$GPGGA,153501.00,5303.7090,N,00849.2128,E,1,10,1.04,3.41,M,44.478,M,,*61
$GPRMC,153501.00,A,5303.7090,N,00849.2128,E,1.3159,164.261,130624,2.7,E*62
$GPGSA,A,3,3,78,4,77,75,19,2,69,31,21,,,2.0,1.0,1.7*09
$GPGBS,153501.00,12.313,9.586,12.573,,,,*40
$GPGSV,3,1,12,03,77,065,39,78,78,257,35,04,58,185,43,77,45,046,36*70
$GPGSV,3,2,12,74,40,321,20,75,66,187,27,19,39,283,37,02,33,149,47*75
$GPGSV,3,3,12,12,05,343,30,69,24,163,31,31,29,080,34,21,18,145,46*7A
$GPZDA,153502.00,13,06,2024,00,00*66
$GPGGA,153502.00,5303.7086,N,00849.2130,E,1,10,1.04,3.32,M,44.478,M,,*68
$GPRMC,153502.00,A,5303.7086,N,00849.2130,E,1.3245,164.990,130624,2.7,E*64
$GPGSA,A,3,3,78,4,77,75,19,2,69,31,21,,,2.0,1.0,1.7*09
$GPGBS,153502.00,12.313,9.586,12.551,,,,*43
$GPGSV,3,1,12,03,77,065,39,78,78,257,35,04,58,185,43,77,45,046,36*70
$GPGSV,3,2,12,74,40,321,20,75,66,187,27,19,39,283,38,02,33,149,47*7A
$GPGSV,3,3,12,12,05,343,30,69,24,163,31,31,29,080,34,21,18,145,46*7A
$GPZDA,153503.00,13,06,2024,00,00*67
$GPGGA,153503.00,5303.7083,N,00849.2131,E,1,10,1.04,3.30,M,44.478,M,,*6F
$GPRMC,153503.00,A,5303.7083,N,00849.2131,E,1.3614,168.230,130624,2.7,E*6C
$GPGSA,A,3,3,78,4,77,75,19,2,69,31,21,,,2.0,1.0,1.7*09
$GPGBS,153503.00,12.313,9.586,12.531,,,,*44
$GPGSV,3,1,12,03,77,065,39,78,78,257,35,04,58,185,42,77,45,046,36*71
$GPGSV,3,2,12,74,40,321,20,75,66,187,27,19,39,283,38,02,33,149,47*7A
$GPGSV,3,3,12,12,05,343,30,69,24,163,26,31,29,080,34,28,22,045,28*75
$GPZDA,153504.00,13,06,2024,00,00*60
$GPGGA,153504.00,5303.7079,N,00849.2132,E,1,10,1.04,3.34,M,44.478,M,,*6A
$GPRMC,153504.00,A,5303.7079,N,00849.2132,E,1.3349,167.823,130624,2.7,E*67
$GPGSA,A,3,3,78,4,77,75,19,2,69,31,28,,,2.0,1.0,1.7*00
$GPGBS,153504.00,12.313,9.586,12.532,,,,*40
$GPGSV,3,1,12,03,77,065,39,78,78,257,34,04,58,185,42,77,45,046,36*70
$GPGSV,3,2,12,74,40,321,20,75,66,187,27,19,39,283,38,02,33,149,47*7A
$GPGSV,3,3,12,12,05,343,30,69,24,163,28,31,29,080,35,28,22,045,28*7A
$GPZDA,153505.00,13,06,2024,00,00*61
$GPGGA,153505.00,5303.7075,N,00849.2133,E,1,10,1.04,3.36,M,44.478,M,,*64
$GPRMC,153505.00,A,5303.7075,N,00849.2133,E,1.4821,173.903,130624,2.7,E*6F
$GPGSA,A,3,3,78,4,77,75,19,2,69,31,28,,,2.0,1.0,1.7*00
$GPGBS,153505.00,12.313,9.586,12.534,,,,*47
$GPGSV,3,1,12,03,77,065,39,78,78,257,34,04,58,185,42,77,45,046,36*70
$GPGSV,3,2,12,74,40,321,20,75,66,187,27,19,39,283,38,02,33,149,47*7A
$GPGSV,3,3,12,12,05,343,30,69,24,163,29,31,29,080,34,28,22,045,28*7A
$GPZDA,153506.00,13,06,2024,00,00*62
$GPGGA,153506.00,5303.7071,N,00849.2134,E,1,10,1.04,3.40,M,44.478,M,,*65
$GPRMC,153506.00,A,5303.7071,N,00849.2134,E,1.4247,164.721,130624,2.7,E*6D
$GPGSA,A,3,3,78,4,77,75,19,2,69,31,28,,,2.0,1.0,1.7*00
$GPGBS,153506.00,12.313,9.586,12.535,,,,*45
$GPGSV,3,1,12,03,77,065,39,78,78,257,34,04,58,185,42,77,45,046,36*70
$GPGSV,3,2,12,74,40,321,19,75,66,187,27,19,39,283,38,02,33,149,47*70
$GPGSV,3,3,12,12,05,343,30,69,24,163,31,31,29,080,34,28,22,045,28*73
$GPZDA,153507.00,13,06,2024,00,00*63
$GPGGA,153507.00,5303.7067,N,00849.2135,E,1,10,1.04,3.40,M,44.478,M,,*62
$GPRMC,153507.00,A,5303.7067,N,00849.2135,E,1.3855,174.919,130624,2.7,E*60
$GPGSA,A,3,3,78,4,77,75,19,2,69,31,28,,,2.0,1.0,1.7*00
$GPGBS,153507.00,12.313,9.586,12.535,,,,*44
$GPGSV,3,1,12,03,77,065,39,78,78,257,34,04,58,185,42,77,45,046,36*70
$GPGSV,3,2,12,74,40,321,19,75,66,187,27,19,39,283,38,02,33,149,47*70
$GPGSV,3,3,12,12,05,343,31,69,24,163,33,31,29,080,34,28,22,045,28*70
$GPZDA,153508.00,13,06,2024,00,00*6C
$GPGGA,153508.00,5303.7063,N,00849.2136,E,1,10,1.04,3.35,M,44.478,M,,*68
$GPRMC,153508.00,A,5303.7063,N,00849.2136,E,1.3484,166.271,130624,2.7,E*6E
$GPGSA,A,3,3,78,4,77,75,19,2,69,31,28,,,2.0,1.0,1.7*00
$GPGBS,153508.00,12.313,9.586,12.516,,,,*4A
$GPGSV,3,1,12,03,77,065,39,78,78,257,34,04,58,185,42,77,45,046,36*70
$GPGSV,3,2,12,74,40,321,20,75,66,187,27,19,39,283,38,02,33,149,47*7A
$GPGSV,3,3,12,12,05,343,30,69,24,163,33,31,29,080,36,28,22,045,28*73
$GPZDA,153509.00,13,06,2024,00,00*6D
$GPGGA,153509.00,5303.7060,N,00849.2138,E,1,10,1.04,3.41,M,44.478,M,,*67
$GPRMC,153509.00,A,5303.7060,N,00849.2138,E,1.2789,168.132,130624,2.7,E*67
$GPGSA,A,3,3,78,4,77,75,19,2,69,31,28,,,2.0,1.0,1.7*00
$GPGBS,153509.00,12.313,9.586,12.250,,,,*4E
$GPGSV,3,1,12,03,77,065,39,78,78,257,34,04,58,185,43,77,45,046,36*71
$GPGSV,3,2,12,74,40,321,19,75,66,187,28,19,39,283,38,02,33,149,47*7F
$GPGSV,3,3,12,12,05,343,30,69,24,163,34,31,29,080,36,28,22,045,29*75
$GPZDA,153510.00,13,06,2024,00,00*65
$GPGGA,153510.00,5303.7057,N,00849.2139,E,1,10,1.04,3.31,M,44.478,M,,*6D
$GPRMC,153510.00,A,5303.7057,N,00849.2139,E,1.2408,166.104,130624,2.7,E*6B
$GPGSA,A,3,3,78,4,77,75,19,2,69,31,28,,,2.0,1.0,1.7*00
$GPGBS,153510.00,12.313,9.586,12.039,,,,*4B
$GPGSV,3,1,12,03,77,065,39,78,78,257,34,04,58,185,43,77,45,046,36*71
$GPGSV,3,2,12,74,40,321,20,75,66,187,27,19,39,283,38,02,33,149,47*7A
$GPGSV,3,3,12,12,05,343,29,69,24,163,34,31,29,080,36,28,22,045,30*75
$GPZDA,153511.00,13,06,2024,00,00*64
$GPGGA,153511.00,5303.7054,N,00849.2140,E,1,10,1.04,3.32,M,44.478,M,,*62
$GPRMC,153511.00,A,5303.7054,N,00849.2140,E,1.1582,164.517,130624,2.7,E*63
$GPGSA,A,3,3,78,4,77,75,19,2,69,31,28,,,2.0,1.0,1.7*00
$GPGBS,153511.00,12.313,9.586,12.069,,,,*4F
$GPGSV,3,1,12,03,77,065,39,78,78,257,34,04,58,185,43,77,45,046,37*70
$GPGSV,3,2,12,74,40,321,20,75,66,187,28,19,39,283,38,02,33,149,47*75
$GPGSV,3,3,12,12,05,343,29,69,24,163,34,31,29,080,36,28,22,045,30*75
$GPZDA,153512.00,13,06,2024,00,00*67
$GPGGA,153512.00,5303.7050,N,00849.2141,E,1,10,1.04,3.36,M,44.478,M,,*60
$GPRMC,153512.00,A,5303.7050,N,00849.2141,E,1.4050,180.650,130624,2.7,E*60
$GPGSA,A,3,3,78,4,77,75,19,2,69,31,28,,,2.0,1.0,1.7*00
$GPGBS,153512.00,12.313,9.586,12.094,,,,*4E
$GPGSV,3,1,12,03,77,065,39,78,78,257,34,04,58,185,43,77,45,046,37*70
$GPGSV,3,2,12,74,40,321,20,75,66,187,27,19,39,283,38,02,33,149,47*7A
$GPGSV,3,3,12,12,05,343,29,69,24,163,30,31,29,079,33,28,22,045,30*72
$GPZDA,153513.00,13,06,2024,00,00*66
$GPGGA,153513.00,5303.7046,N,00849.2142,E,1,10,1.04,3.42,M,44.478,M,,*66
$GPRMC,153513.00,A,5303.7046,N,00849.2142,E,1.1494,172.193,130624,2.7,E*69
$GPGSA,A,3,3,78,4,77,75,19,2,69,31,28,,,2.0,1.0,1.7*00
$GPGBS,153513.00,12.313,9.586,12.115,,,,*47
$GPGSV,3,1,12,03,77,065,39,78,78,257,34,04,58,185,43,77,45,046,36*71
$GPGSV,3,2,12,74,40,321,20,75,66,187,27,19,39,283,38,02,33,149,47*7A
$GPGSV,3,3,12,12,05,343,30,69,24,163,27,31,29,079,34,28,22,045,30*7B
$GPZDA,153514.00,13,06,2024,00,00*61
$GPGGA,153514.00,5303.7044,N,00849.2143,E,1,10,1.04,3.40,M,44.478,M,,*60
$GPRMC,153514.00,A,5303.7044,N,00849.2143,E,1.1347,168.090,130624,2.7,E*6D
$GPGSA,A,3,3,78,4,77,75,19,2,69,31,28,,,2.0,1.0,1.7*00
$GPGBS,153514.00,12.313,9.586,11.920,,,,*4D
$GPGSV,3,1,12,03,77,065,39,78,78,257,34,04,58,185,43,77,45,046,36*71
$GPGSV,3,2,12,74,40,321,20,75,66,187,27,19,39,283,38,02,33,149,47*7A
$GPGSV,3,3,12,12,05,343,30,69,24,163,30,31,29,079,34,28,22,045,30*7D
$GPZDA,153515.00,13,06,2024,00,00*60
$GPGGA,153515.00,5303.7041,N,00849.2144,E,1,10,1.04,3.44,M,44.478,M,,*67
$GPRMC,153515.00,A,5303.7041,N,00849.2144,E,1.2875,170.022,130624,2.7,E*67
$GPGSA,A,3,3,78,4,77,75,19,2,69,31,28,,,2.0,1.0,1.7*00
$GPGBS,153515.00,12.313,9.586,11.756,,,,*43
$GPGSV,3,1,12,03,77,065,39,78,78,257,35,04,58,185,43,77,45,046,35*73
$GPGSV,3,2,12,74,40,321,20,75,66,187,27,19,39,283,38,02,33,149,48*75
$GPGSV,3,3,12,12,05,343,29,69,24,163,32,31,29,079,34,28,22,045,30*77
$GPZDA,153516.00,13,06,2024,00,00*63
$GPGGA,153516.00,5303.7038,N,00849.2146,E,1,10,1.04,3.48,M,44.478,M,,*64
$GPRMC,153516.00,A,5303.7038,N,00849.2146,E,1.1768,169.858,130624,2.7,E*65
$GPGSA,A,3,3,78,4,77,75,19,2,69,31,28,,,2.0,1.0,1.7*00
$GPGBS,153516.00,12.313,9.586,11.692,,,,*49
$GPGSV,3,1,12,03,77,065,39,78,78,257,35,04,58,185,43,77,45,046,36*70
$GPGSV,3,2,12,74,40,321,20,75,66,187,27,19,39,283,37,02,33,149,48*7A
$GPGSV,3,3,12,12,05,343,29,69,24,163,32,31,29,079,34,28,22,045,30*77
$GPZDA,153517.00,13,06,2024,00,00*62
$GPGGA,153517.00,5303.7035,N,00849.2147,E,1,10,1.04,3.40,M,44.478,M,,*61
$GPRMC,153517.00,A,5303.7035,N,00849.2147,E,1.0188,160.167,130624,2.7,E*6D
$GPGSA,A,3,3,78,4,77,75,19,2,69,31,28,,,2.0,1.0,1.7*00
$GPGBS,153517.00,12.313,9.586,11.619,,,,*4B
$GPGSV,3,1,12,03,77,065,39,78,78,257,34,04,58,185,43,77,45,046,36*71
$GPGSV,3,2,12,74,40,321,20,75,66,187,27,19,39,283,37,02,33,149,48*7A
$GPGSV,3,3,12,12,05,343,27,69,24,163,33,31,29,079,34,28,22,045,31*79
$GPZDA,153518.00,13,06,2024,00,00*6D
$GPGGA,153518.00,5303.7032,N,00849.2149,E,1,10,1.04,3.44,M,44.478,M,,*63
$GPRMC,153518.00,A,5303.7032,N,00849.2149,E,1.0329,159.135,130624,2.7,E*6F
$GPGSA,A,3,3,78,4,77,75,19,2,69,31,28,,,2.0,1.0,1.7*00
$GPGBS,153518.00,12.313,9.586,11.556,,,,*4C
$GPGSV,3,1,12,03,77,065,39,78,78,257,34,04,58,185,43,77,45,046,36*71
$GPGSV,3,2,12,74,40,321,21,75,66,187,27,19,39,283,37,02,32,149,48*7A
$GPGSV,3,3,12,12,05,343,26,69,24,163,33,31,29,079,34,28,22,045,31*78
$GPZDA,153519.00,13,06,2024,00,00*6C
$GPGGA,153519.00,5303.7030,N,00849.2150,E,1,10,1.04,3.39,M,44.478,M,,*62
$GPRMC,153519.00,A,5303.7030,N,00849.2150,E,0.8970,158.463,130624,2.7,E*6C
$GPGSA,A,3,3,78,4,77,75,19,2,69,31,28,,,2.0,1.0,1.7*00
$GPGBS,153519.00,12.313,9.586,11.614,,,,*48
$GPGSV,3,1,12,03,77,065,39,78,78,257,34,04,58,185,43,77,45,046,36*71
$GPGSV,3,2,12,74,40,321,21,75,66,187,27,19,39,283,37,02,32,149,48*7A
$GPGSV,3,3,12,12,05,343,26,69,24,163,33,31,29,079,33,28,22,045,30*7E
$GPZDA,153520.00,13,06,2024,00,00*66
$GPGGA,153520.00,5303.7027,N,00849.2152,E,1,10,1.04,3.29,M,44.478,M,,*6D
$GPRMC,153520.00,A,5303.7027,N,00849.2152,E,1.1469,173.921,130624,2.7,E*6D
$GPGSA,A,3,3,78,4,77,75,19,2,69,31,28,,,2.0,1.0,1.7*00
$GPGBS,153520.00,12.313,9.586,11.662,,,,*43
$GPGSV,3,1,12,03,77,066,39,78,78,257,34,04,58,185,43,77,45,046,35*71
$GPGSV,3,2,12,74,40,321,21,75,66,187,27,19,39,283,37,02,32,149,47*75
$GPGSV,3,3,12,12,05,343,26,69,24,163,34,31,29,079,30,28,22,045,31*7B
$GPZDA,153521.00,13,06,2024,00,00*67
$GPGGA,153521.00,5303.7024,N,00849.2153,E,1,10,1.04,3.21,M,44.478,M,,*66
$GPRMC,153521.00,A,5303.7024,N,00849.2153,E,0.9216,165.485,130624,2.7,E*6D
$GPGSA,A,3,3,78,4,77,75,19,2,69,31,28,,,2.0,1.0,1.7*00
$GPGBS,153521.00,12.313,9.586,11.705,,,,*42
$GPGSV,3,1,12,03,77,066,40,78,78,257,34,04,58,185,43,77,45,046,35*7F
$GPGSV,3,2,12,74,40,321,21,75,66,187,27,19,39,283,36,02,32,149,47*74
$GPGSV,3,3,12,12,05,343,27,69,24,163,33,31,29,079,31,28,22,045,31*7C
$GPZDA,153522.00,13,06,2024,00,00*64
$GPGGA,153522.00,5303.7021,N,00849.2153,E,1,10,1.04,3.10,M,44.478,M,,*62
$GPRMC,153522.00,A,5303.7021,N,00849.2153,E,0.8361,173.516,130624,2.7,E*67
$GPGSA,A,3,3,78,4,77,75,19,2,69,31,28,,,2.0,1.0,1.7*00
$GPGBS,153522.00,12.313,9.586,11.635,,,,*43
$GPGSV,3,1,12,03,77,066,40,78,78,257,34,04,58,185,43,77,45,046,34*7E
$GPGSV,3,2,12,74,40,321,21,75,66,187,27,19,39,283,35,02,32,149,48*78
$GPGSV,3,3,12,12,05,343,27,69,24,163,33,31,29,079,32,28,22,045,30*7E
$GPGSV,3,1,12,03,77,066,40,78,78,257,34,04,58,185,43,77,45,046,34*7E
$GPGSV,3,2,12,74,40,321,22,75,66,187,27,19,39,283,35,02,32,149,48*7B
$GPGSV,3,3,12,12,05,343,26,69,24,163,32,31,29,079,33,28,22,045,29*77
$GPZDA,153524.00,13,06,2024,00,00*62
$GPGGA,153524.00,5303.7015,N,00849.2153,E,1,10,1.04,3.09,M,44.478,M,,*6B
$GPRMC,153524.00,A,5303.7015,N,00849.2153,E,0.7082,155.365,130624,2.7,E*61
$GPGSA,A,3,3,78,4,77,75,19,2,69,31,28,,,2.0,1.0,1.7*00
$GPGBS,153524.00,12.313,9.586,11.408,,,,*49
$GPGSV,3,1,12,03,77,066,40,78,78,257,34,04,58,185,43,77,45,046,35*7F
$GPGSV,3,2,12,74,40,321,22,75,66,187,27,19,39,283,36,02,32,149,48*78
$GPGSV,3,3,12,12,05,343,26,69,24,163,31,31,29,079,35,28,22,045,30*7A
$GPZDA,153525.00,13,06,2024,00,00*63
$GPGGA,153525.00,5303.7014,N,00849.2154,E,1,10,1.04,3.06,M,44.478,M,,*63
$GPRMC,153525.00,A,5303.7014,N,00849.2154,E,0.5726,159.936,130624,2.7,E*6D
$GPGSA,A,3,3,78,4,77,75,19,2,69,31,28,,,2.0,1.0,1.7*00
$GPGBS,153525.00,12.313,9.586,11.455,,,,*40
$GPGSV,3,1,12,03,77,066,40,78,78,257,34,04,58,185,43,77,45,046,35*7F
$GPGSV,3,2,12,74,40,321,21,75,66,187,27,19,39,283,36,02,32,149,47*74
$GPGSV,3,3,12,12,05,343,26,69,24,163,32,31,29,079,37,28,22,045,30*7B
$GPZDA,153526.00,13,06,2024,00,00*60
$GPGGA,153526.00,5303.7012,N,00849.2154,E,1,10,1.04,3.08,M,44.478,M,,*68
$GPRMC,153526.00,A,5303.7012,N,00849.2154,E,0.8791,162.604,130624,2.7,E*6F
$GPGSA,A,3,3,78,4,77,75,19,2,69,31,28,,,2.0,1.0,1.7*00
$GPGBS,153526.00,12.313,9.586,11.501,,,,*43
$GPGSV,3,1,12,03,77,066,40,78,78,257,34,04,58,185,43,77,45,046,35*7F
$GPGSV,3,2,12,74,40,321,21,75,66,187,27,19,39,283,37,02,32,149,47*75
$GPGSV,3,3,12,12,05,343,25,69,24,163,33,31,29,079,38,28,22,045,30*76
$GPZDA,153527.00,13,06,2024,00,00*61
$GPGGA,153527.00,5303.7009,N,00849.2155,E,1,10,1.04,3.09,M,44.478,M,,*63
$GPRMC,153527.00,A,5303.7009,N,00849.2155,E,1.0854,173.879,130624,2.7,E*6E
$GPGSA,A,3,3,78,4,77,75,19,2,69,31,28,,,2.0,1.0,1.7*00
$GPGBS,153527.00,12.313,9.586,11.541,,,,*46
$GPGSV,3,1,12,03,77,066,40,78,78,257,33,04,58,185,43,77,45,046,36*7B
$GPGSV,3,2,12,74,40,321,21,75,66,187,27,19,39,283,37,02,32,149,47*75
$GPGSV,3,3,12,12,05,343,25,69,24,163,35,31,29,079,37,28,22,045,29*77
$GPZDA,153528.00,13,06,2024,00,00*6E
$GPGGA,153528.00,5303.7007,N,00849.2156,E,1,10,1.04,3.02,M,44.478,M,,*6A
$GPRMC,153528.00,A,5303.7007,N,00849.2156,E,0.7802,161.500,130624,2.7,E*69
$GPGSA,A,3,3,78,4,77,75,19,2,69,31,28,,,2.0,1.0,1.7*00
$GPGBS,153528.00,12.313,9.586,11.477,,,,*4D
$GPGSV,3,1,12,03,77,066,40,78,78,257,33,04,58,185,43,77,45,046,36*7B
$GPGSV,3,2,12,74,40,321,21,75,66,187,27,19,39,283,37,02,32,149,47*75
$GPGSV,3,3,12,12,05,343,26,69,24,163,35,31,29,079,37,28,22,045,29*74
$GPZDA,153529.00,13,06,2024,00,00*6F
$GPGGA,153529.00,5303.7004,N,00849.2157,E,1,10,1.04,2.98,M,44.478,M,,*6B
$GPRMC,153529.00,A,5303.7004,N,00849.2157,E,0.9340,173.192,130624,2.7,E*65
$GPGSA,A,3,3,78,4,77,75,19,2,69,31,28,,,2.0,1.0,1.7*00
$GPGBS,153529.00,12.313,9.586,11.375,,,,*49
$GPGSV,3,1,12,03,77,066,40,78,78,257,34,04,58,185,43,77,45,046,36*7C
$GPGSV,3,2,12,74,40,321,20,75,66,187,27,19,39,283,37,02,32,149,47*74
$GPGSV,3,3,12,12,05,343,26,69,24,163,35,31,29,079,36,28,22,045,31*7C
$GPZDA,153530.00,13,06,2024,00,00*67
$GPGGA,153530.00,5303.7001,N,00849.2159,E,1,10,1.04,3.02,M,44.478,M,,*6A
$GPRMC,153530.00,A,5303.7001,N,00849.2159,E,0.8810,163.324,130624,2.7,E*67
$GPGSA,A,3,3,78,4,77,75,19,2,69,31,28,,,2.0,1.0,1.7*00
$GPGBS,153530.00,12.313,9.586,11.247,,,,*41
$GPGSV,3,1,12,03,77,066,40,78,78,257,34,04,58,185,43,77,45,046,36*7C
$GPGSV,3,2,12,74,40,321,20,75,66,187,28,19,39,283,37,02,32,149,47*7B
$GPGSV,3,3,12,12,05,343,26,69,24,163,35,31,29,079,35,28,22,045,32*7C
$GPZDA,153531.00,13,06,2024,00,00*66
$GPGGA,153531.00,5303.6998,N,00849.2160,E,1,10,1.04,3.07,M,44.478,M,,*6C
$GPRMC,153531.00,A,5303.6998,N,00849.2160,E,0.8168,167.325,130624,2.7,E*67
$GPGSA,A,3,3,78,4,77,75,19,2,69,31,28,,,2.0,1.0,1.7*00
$GPGBS,153531.00,12.313,9.586,11.186,,,,*4E
$GPGSV,3,1,12,03,77,066,40,78,78,257,34,04,58,185,43,77,45,046,36*7C
$GPGSV,3,2,12,74,40,321,20,75,66,187,28,19,39,283,37,02,32,149,47*7B
$GPGSV,3,3,12,12,05,343,26,69,24,163,34,31,29,079,34,28,22,045,32*7C
$GPZDA,153532.00,13,06,2024,00,00*65
$GPGGA,153532.00,5303.6995,N,00849.2161,E,1,10,1.04,3.08,M,44.478,M,,*6C
$GPRMC,153532.00,A,5303.6995,N,00849.2161,E,0.8572,167.727,130624,2.7,E*61
$GPGSA,A,3,3,78,4,77,75,19,2,69,31,28,,,2.0,1.0,1.7*00
$GPGBS,153532.00,12.313,9.586,11.248,,,,*4C
$GPGSV,3,1,12,03,77,066,40,78,78,257,34,04,58,185,43,77,45,046,36*7C
$GPGSV,3,2,12,74,40,321,20,75,66,187,28,19,39,283,38,02,32,149,47*74
$GPGSV,3,3,12,12,05,343,26,69,23,163,33,31,29,079,34,28,22,045,31*7F
$GPZDA,153533.00,13,06,2024,00,00*64
$GPGGA,153533.00,5303.6993,N,00849.2162,E,1,10,1.04,3.14,M,44.478,M,,*65
$GPRMC,153533.00,A,5303.6993,N,00849.2162,E,0.7778,164.923,130624,2.7,E*6B
$GPGSA,A,3,3,78,4,77,75,19,2,69,31,28,,,2.0,1.0,1.7*00
$GPGBS,153533.00,12.313,9.586,11.303,,,,*43
$GPGSV,3,1,12,03,77,066,40,78,78,257,34,04,58,185,43,77,45,046,36*7C
$GPGSV,3,2,12,74,40,321,21,75,66,187,28,19,39,283,38,02,32,149,47*75
$GPGSV,3,3,12,12,05,343,26,69,23,163,32,31,29,079,34,28,22,045,31*7E
$GPGSV,3,1,12,03,77,066,40,78,78,257,34,04,58,185,43,77,45,046,36*7C
$GPGSV,3,2,12,74,40,321,21,75,66,187,28,19,39,283,39,02,32,149,47*74
$GPGSV,3,3,12,12,05,343,26,69,23,163,33,31,29,079,34,28,22,045,31*7F
$GPZDA,153535.00,13,06,2024,00,00*62
$GPGGA,153535.00,5303.6989,N,00849.2165,E,1,10,1.04,3.22,M,44.478,M,,*6A
$GPRMC,153535.00,A,5303.6989,N,00849.2165,E,0.8711,165.320,130624,2.7,E*69
$GPGSA,A,3,3,78,4,77,75,19,2,69,31,28,,,2.0,1.0,1.7*00
$GPGBS,153535.00,12.313,9.586,11.393,,,,*4C
$GPGSV,3,1,12,03,77,066,40,78,78,257,34,04,58,185,43,77,45,046,35*7F
$GPGSV,3,2,12,74,40,321,21,75,66,187,28,19,39,283,39,02,32,149,47*74
$GPGSV,3,3,12,12,05,343,25,69,23,163,35,31,29,079,33,28,22,045,31*7D
$GPZDA,153536.00,13,06,2024,00,00*61
$GPGGA,153536.00,5303.6986,N,00849.2166,E,1,10,1.04,3.22,M,44.478,M,,*65
$GPRMC,153536.00,A,5303.6986,N,00849.2166,E,0.8889,168.593,130624,2.7,E*6B
$GPGSA,A,3,3,78,4,77,75,19,2,69,31,28,,,2.0,1.0,1.7*00
$GPGBS,153536.00,12.313,9.586,11.431,,,,*40
$GPGSV,3,1,12,03,77,066,40,78,78,257,34,04,58,185,43,77,45,046,35*7F
$GPGSV,3,2,12,74,40,321,22,75,66,187,28,19,39,283,39,02,32,149,47*77
$GPGSV,3,3,12,12,05,343,24,69,23,163,36,31,29,079,33,28,22,045,31*7F
$GPZDA,153537.00,13,06,2024,00,00*60
$GPGGA,153537.00,5303.6984,N,00849.2166,E,1,10,1.04,3.19,M,44.478,M,,*6E
$GPRMC,153537.00,A,5303.6984,N,00849.2166,E,1.0728,172.974,130624,2.7,E*6B
$GPGSA,A,3,3,78,4,77,75,19,2,69,31,28,,,2.0,1.0,1.7*00
$GPGBS,153537.00,12.313,9.586,11.465,,,,*40
$GPGSV,3,1,12,03,77,066,40,78,78,257,34,04,58,185,43,77,45,046,35*7F
$GPGSV,3,2,12,74,40,321,22,75,66,187,28,19,39,283,38,02,32,149,47*76
$GPGSV,3,3,12,12,05,343,24,69,23,163,34,31,29,079,33,28,22,045,30*7C
$GPZDA,153538.00,13,06,2024,00,00*6F
$GPGGA,153538.00,5303.6981,N,00849.2167,E,1,10,1.04,3.13,M,44.478,M,,*6F
$GPRMC,153538.00,A,5303.6981,N,00849.2167,E,0.9960,170.584,130624,2.7,E*6B
$GPGSA,A,3,3,78,4,77,75,19,2,69,31,28,,,2.0,1.0,1.7*00
$GPGBS,153538.00,12.313,9.586,11.496,,,,*43
$GPGSV,3,1,12,03,77,066,40,78,78,257,34,04,58,185,43,77,45,046,35*7F
$GPGSV,3,2,12,74,40,321,22,75,66,187,28,19,39,283,39,02,32,149,47*77
$GPGSV,3,3,12,12,05,343,24,69,23,163,30,31,29,079,33,28,22,045,29*70
$GPZDA,153539.00,13,06,2024,00,00*6E
$GPGGA,153539.00,5303.6978,N,00849.2167,E,1,10,1.04,3.12,M,44.478,M,,*69
$GPRMC,153539.00,A,5303.6978,N,00849.2167,E,1.0051,172.041,130624,2.7,E*61
$GPGSA,A,3,3,78,4,77,75,19,2,69,31,28,,,2.0,1.0,1.7*00
$GPGBS,153539.00,12.313,9.586,11.525,,,,*4B
$GPGSV,3,1,12,03,77,066,40,78,78,257,34,04,58,185,43,77,45,046,34*7E
$GPGSV,3,2,12,74,40,321,22,75,66,187,28,19,39,283,39,02,32,149,47*77
$GPGSV,3,3,12,12,05,343,24,69,23,163,30,31,29,079,32,28,22,045,31*78
$GPZDA,153540.00,13,06,2024,00,00*60
$GPGGA,153540.00,5303.6976,N,00849.2167,E,1,10,1.04,3.14,M,44.478,M,,*6F
$GPRMC,153540.00,A,5303.6976,N,00849.2167,E,0.9733,165.910,130624,2.7,E*61
$GPGSA,A,3,3,78,4,77,75,19,2,69,31,28,,,2.0,1.0,1.7*00
$GPGBS,153540.00,12.313,9.586,11.549,,,,*4F
$GPGSV,3,1,12,03,77,066,40,78,78,257,34,04,58,185,43,77,45,046,34*7E
$GPGSV,3,2,12,74,40,321,22,75,66,187,28,19,39,283,39,02,32,149,47*77
$GPGSV,3,3,12,12,05,343,24,69,23,163,31,31,29,079,33,28,22,045,31*78
$GPZDA,153541.00,13,06,2024,00,00*61
$GPGGA,153541.00,5303.6973,N,00849.2168,E,1,10,1.04,3.17,M,44.478,M,,*67
$GPRMC,153541.00,A,5303.6973,N,00849.2168,E,0.9945,162.653,130624,2.7,E*6A
$GPGSA,A,3,3,78,4,77,75,19,2,69,31,28,,,2.0,1.0,1.7*00
$GPGBS,153541.00,12.313,9.586,11.573,,,,*47
$GPGSV,3,1,12,03,77,066,40,78,78,257,34,04,58,185,43,77,45,046,34*7E
$GPGSV,3,2,12,74,40,321,22,75,66,187,28,19,39,283,39,02,32,149,47*77
$GPGSV,3,3,12,12,05,343,24,69,23,163,33,31,29,079,32,28,22,045,31*7B
$GPZDA,153542.00,13,06,2024,00,00*62
$GPGGA,153542.00,5303.6970,N,00849.2169,E,1,10,1.04,3.15,M,44.478,M,,*64
$GPRMC,153542.00,A,5303.6970,N,00849.2169,E,0.9619,167.125,130624,2.7,E*6E
$GPGSA,A,3,3,78,4,77,75,19,2,69,31,28,,,2.0,1.0,1.7*00
$GPGBS,153542.00,12.313,9.586,11.592,,,,*4B
$GPGSV,3,1,12,03,77,066,40,78,78,257,34,04,58,185,43,77,45,046,35*7F
$GPGSV,3,2,12,74,40,321,22,75,66,187,28,19,39,283,39,02,32,149,47*77
$GPGSV,3,3,12,12,05,343,24,69,23,163,33,31,29,079,32,28,22,045,31*7B
$GPZDA,153543.00,13,06,2024,00,00*63
$GPGGA,153543.00,5303.6967,N,00849.2170,E,1,10,1.04,3.14,M,44.478,M,,*6A
$GPRMC,153543.00,A,5303.6967,N,00849.2170,E,0.9863,170.654,130624,2.7,E*65
$GPGSA,A,3,3,78,4,77,75,19,2,69,31,28,,,2.0,1.0,1.7*00
$GPGBS,153543.00,12.313,9.586,11.612,,,,*41
$GPGSV,3,1,12,03,77,066,40,78,78,257,34,04,58,185,43,77,45,046,35*7F
$GPGSV,3,2,12,74,40,321,22,75,66,187,28,19,39,283,39,02,32,149,47*77
$GPGSV,3,3,12,12,05,343,24,69,23,163,32,31,29,079,32,28,22,045,31*7A
$GPZDA,153544.00,13,06,2024,00,00*64
$GPGGA,153544.00,5303.6964,N,00849.2170,E,1,10,1.04,3.13,M,44.478,M,,*69
$GPRMC,153544.00,A,5303.6964,N,00849.2170,E,0.7998,168.280,130624,2.7,E*6E
$GPGSA,A,3,3,78,4,77,75,19,2,69,31,28,,,2.0,1.0,1.7*00
$GPGBS,153544.00,12.313,9.586,11.629,,,,*4E
$GPGSV,3,1,12,03,77,066,40,78,78,257,34,04,58,185,43,77,45,046,35*7F
$GPGSV,3,2,12,74,40,321,22,75,65,187,29,19,39,283,39,02,32,149,47*75
$GPGSV,3,3,12,12,05,343,24,69,23,163,32,31,29,079,33,28,22,045,30*7A
$GPZDA,153545.00,13,06,2024,00,00*65
$GPGGA,153545.00,5303.6962,N,00849.2170,E,1,10,1.04,3.12,M,44.478,M,,*6F
$GPRMC,153545.00,A,5303.6962,N,00849.2170,E,0.8403,173.486,130624,2.7,E*63
$GPGSA,A,3,3,78,4,77,75,19,2,69,31,28,,,2.0,1.0,1.7*00
$GPGBS,153545.00,12.313,9.586,11.645,,,,*45
$GPGSV,3,1,12,03,77,066,40,78,78,257,34,04,58,185,43,77,45,046,35*7F
$GPGSV,3,2,12,74,40,321,22,75,65,187,29,19,39,283,39,02,32,149,47*75
$GPGSV,3,3,12,12,05,343,24,69,23,163,32,31,29,079,32,28,22,045,30*7B
$GPZDA,153546.00,13,06,2024,00,00*66
$GPGGA,153546.00,5303.6960,N,00849.2170,E,1,10,1.04,3.06,M,44.478,M,,*6B
$GPRMC,153546.00,A,5303.6960,N,00849.2170,E,0.7875,168.650,130624,2.7,E*63
$GPGSA,A,3,3,78,4,77,75,19,2,69,31,28,,,2.0,1.0,1.7*00
$GPGBS,153546.00,12.313,9.586,11.659,,,,*4B
$GPGSV,3,1,12,03,77,066,40,78,78,257,34,04,58,185,43,77,45,046,35*7F
$GPGSV,3,2,12,74,40,321,22,75,65,187,29,19,39,283,39,02,32,149,47*75
$GPGSV,3,3,12,12,05,343,25,69,23,163,33,31,29,079,31,28,22,045,30*78
$GPZDA,153547.00,13,06,2024,00,00*67
$GPGGA,153547.00,5303.6957,N,00849.2170,E,1,10,1.04,3.04,M,44.478,M,,*6C
$GPRMC,153547.00,A,5303.6957,N,00849.2170,E,0.7918,175.219,130624,2.7,E*69
$GPGSA,A,3,3,78,4,77,75,19,2,69,31,28,,,2.0,1.0,1.7*00
$GPGBS,153547.00,12.313,9.586,11.667,,,,*47
$GPGSV,3,1,12,03,77,066,39,78,78,257,33,04,58,185,43,77,45,046,35*76
$GPGSV,3,2,12,74,40,321,22,75,65,187,29,19,39,283,39,02,32,149,47*75
$GPGSV,3,3,12,12,05,343,25,69,23,163,32,31,29,079,33,28,22,045,30*7B
$GPZDA,153548.00,13,06,2024,00,00*68
$GPGGA,153548.00,5303.6955,N,00849.2170,E,1,10,1.04,3.03,M,44.478,M,,*66
$GPRMC,153548.00,A,5303.6955,N,00849.2170,E,0.7559,172.000,130624,2.7,E*60
$GPGSA,A,3,3,78,4,77,75,19,2,69,31,28,,,2.0,1.0,1.7*00
$GPGBS,153548.00,12.313,9.586,11.687,,,,*46
$GPGSV,3,1,12,03,77,066,39,78,78,257,33,04,58,185,43,77,45,046,35*76
$GPGSV,3,2,12,74,40,321,21,75,65,187,29,19,39,283,38,02,32,149,47*77
$GPGSV,3,3,12,12,05,343,25,69,23,163,31,31,29,079,35,28,22,045,30*7E
$GPZDA,153549.00,13,06,2024,00,00*69
$GPGGA,153549.00,5303.6954,N,00849.2170,E,1,10,1.04,3.02,M,44.478,M,,*67
$GPRMC,153549.00,A,5303.6954,N,00849.2170,E,0.5610,166.413,130624,2.7,E*6F
$GPGSA,A,3,3,78,4,77,75,19,2,69,31,28,,,2.0,1.0,1.7*00
$GPGBS,153549.00,12.313,9.586,11.703,,,,*4A
$GPGSV,3,1,12,03,77,066,40,78,78,257,34,04,58,185,43,77,45,046,36*7C
$GPGSV,3,2,12,74,40,321,21,75,65,187,29,19,39,283,38,02,32,149,47*77
$GPGSV,3,3,12,12,05,343,25,69,23,163,29,31,29,079,35,28,22,045,30*77
$GPZDA,153550.00,13,06,2024,00,00*61
$GPGGA,153550.00,5303.6952,N,00849.2170,E,1,10,1.04,3.05,M,44.478,M,,*6E
$GPRMC,153550.00,A,5303.6952,N,00849.2170,E,0.5758,167.041,130624,2.7,E*6E
$GPGSA,A,3,3,78,4,77,75,19,2,69,31,28,,,2.0,1.0,1.7*00
$GPGBS,153550.00,12.313,9.586,11.702,,,,*43
$GPGSV,3,1,12,03,77,066,40,78,79,259,34,04,58,185,43,77,45,046,36*73
$GPGSV,3,2,12,74,40,321,21,75,65,187,28,19,39,283,37,02,32,149,47*79
$GPGSV,3,3,12,12,05,343,25,69,23,163,30,31,29,079,34,28,22,045,30*7E
$GPZDA,153551.00,13,06,2024,00,00*60
$GPGGA,153551.00,5303.6950,N,00849.2171,E,1,10,1.04,3.02,M,44.478,M,,*6B
$GPRMC,153551.00,A,5303.6950,N,00849.2171,E,0.5900,163.448,130624,2.7,E*66
$GPGSA,A,3,3,78,4,77,75,19,2,69,31,28,,,2.0,1.0,1.7*00
$GPGBS,153551.00,12.313,9.586,11.701,,,,*41
$GPGSV,3,1,12,03,77,066,40,78,79,259,34,04,58,185,43,77,45,046,36*73
$GPGSV,3,2,12,74,40,321,22,75,65,187,28,19,39,283,38,02,32,149,48*7A
$GPGSV,3,3,12,12,05,343,24,69,23,163,31,31,29,079,34,28,22,045,31*7F
$GPZDA,153552.00,13,06,2024,00,00*63
$GPGGA,153552.00,5303.6949,N,00849.2171,E,1,10,1.04,3.00,M,44.478,M,,*62
$GPRMC,153552.00,A,5303.6949,N,00849.2171,E,0.5384,165.210,130624,2.7,E*66
$GPGSA,A,3,3,78,4,77,75,19,2,69,31,28,,,2.0,1.0,1.7*00
$GPGBS,153552.00,12.313,9.586,11.696,,,,*4D
$GPGSV,3,1,12,03,77,066,39,78,79,259,34,04,58,185,43,77,45,046,36*7D
$GPGSV,3,2,12,74,40,321,22,75,65,187,28,19,39,282,38,02,32,149,48*7B
$GPGSV,3,3,12,12,05,343,24,69,23,163,32,31,29,079,34,28,22,045,32*7F
$GPZDA,153553.00,13,06,2024,00,00*62
$GPGGA,153553.00,5303.6948,N,00849.2172,E,1,10,1.04,2.98,M,44.478,M,,*61
$GPRMC,153553.00,A,5303.6948,N,00849.2172,E,0.5821,171.120,130624,2.7,E*64
$GPGSA,A,3,3,78,4,77,75,19,2,69,31,28,,,2.0,1.0,1.7*00
$GPGBS,153553.00,12.313,9.586,11.706,,,,*44
$GPGSV,3,1,12,03,77,066,40,78,79,259,34,04,58,185,43,77,45,046,36*73
$GPGSV,3,2,12,74,40,321,22,75,65,187,29,19,39,282,39,02,32,149,48*7B
$GPGSV,3,3,12,12,05,343,24,69,23,163,35,31,29,079,34,28,22,045,32*78
$GPZDA,153554.00,13,06,2024,00,00*65
$GPGGA,153554.00,5303.6946,N,00849.2173,E,1,10,1.04,2.95,M,44.478,M,,*64
$GPRMC,153554.00,A,5303.6946,N,00849.2173,E,0.7228,168.809,130624,2.7,E*67
$GPGSA,A,3,3,78,4,77,75,19,2,69,31,28,,,2.0,1.0,1.7*00
$GPGBS,153554.00,12.313,9.586,11.703,,,,*46
$GPGSV,3,1,12,03,77,066,40,78,79,259,34,04,58,185,43,77,45,046,36*73
$GPGSV,3,2,12,74,40,321,22,75,65,187,29,19,39,282,39,02,32,149,48*7B
$GPGSV,3,3,12,12,05,343,24,69,23,163,35,31,29,079,33,28,22,045,32*7F
$GPZDA,153555.00,13,06,2024,00,00*64
$GPGGA,153555.00,5303.6945,N,00849.2173,E,1,10,1.04,2.99,M,44.478,M,,*6A
$GPRMC,153555.00,A,5303.6945,N,00849.2173,E,0.7072,165.568,130624,2.7,E*6F
$GPGSA,A,3,3,78,4,77,75,19,2,69,31,28,,,2.0,1.0,1.7*00
$GPGBS,153555.00,12.313,9.586,11.700,,,,*44
$GPGSV,3,1,12,03,77,066,40,78,79,259,34,04,58,185,43,77,45,046,36*73
$GPGSV,3,2,12,74,40,321,22,75,65,187,28,19,39,282,39,02,32,149,47*75
$GPGSV,3,3,12,12,05,343,24,69,23,163,36,31,29,079,33,28,22,045,32*7C
$GPZDA,153556.00,13,06,2024,00,00*67
$GPGGA,153556.00,5303.6943,N,00849.2174,E,1,10,1.04,3.03,M,44.478,M,,*6A
$GPRMC,153556.00,A,5303.6943,N,00849.2174,E,0.8620,172.285,130624,2.7,E*61
$GPGSA,A,3,3,78,4,77,75,19,2,69,31,28,,,2.0,1.0,1.7*00
$GPGBS,153556.00,12.313,9.586,11.702,,,,*45
$GPGSV,3,1,12,03,77,066,40,78,79,259,34,04,58,185,43,77,45,046,36*73
$GPGSV,3,2,12,74,40,321,22,75,65,187,28,19,39,282,38,02,32,149,47*74
$GPGSV,3,3,12,12,05,343,24,69,23,163,35,31,29,079,33,28,22,045,32*7F
$GPZDA,153557.00,13,06,2024,00,00*66
$GPGGA,153557.00,5303.6941,N,00849.2175,E,1,10,1.04,3.06,M,44.478,M,,*6D
$GPRMC,153557.00,A,5303.6941,N,00849.2175,E,0.7569,166.062,130624,2.7,E*6C
$GPGSA,A,3,3,78,4,77,75,19,2,69,31,28,,,2.0,1.0,1.7*00
$GPGBS,153557.00,12.313,9.586,11.704,,,,*42
$GPGSV,3,1,12,03,77,066,40,78,79,259,34,04,58,185,43,77,45,046,36*73
$GPGSV,3,2,12,74,40,321,22,75,65,187,28,19,39,282,39,02,32,149,48*7A
$GPGSV,3,3,12,12,05,343,24,69,23,163,31,31,29,079,33,28,22,045,31*78
$GPZDA,153558.00,13,06,2024,00,00*69
$GPGGA,153558.00,5303.6939,N,00849.2176,E,1,10,1.04,3.08,M,44.478,M,,*60
$GPRMC,153558.00,A,5303.6939,N,00849.2176,E,0.7823,165.669,130624,2.7,E*62
$GPGSA,A,3,3,78,4,77,75,19,2,69,31,28,,,2.0,1.0,1.7*00
$GPGBS,153558.00,12.313,9.586,11.702,,,,*4B
$GPGSV,3,1,12,03,77,066,40,78,79,259,34,04,58,185,43,77,45,046,36*73
$GPGSV,3,2,12,74,40,321,22,75,65,187,28,19,39,282,39,02,32,149,48*7A
$GPGSV,3,3,12,12,05,343,24,69,23,163,25,31,29,079,34,28,22,045,31*7A
$GPZDA,153559.00,13,06,2024,00,00*68
$GPGGA,153559.00,5303.6938,N,00849.2177,E,1,10,1.04,3.13,M,44.478,M,,*6B
$GPRMC,153559.00,A,5303.6938,N,00849.2177,E,0.7593,166.462,130624,2.7,E*6F
$GPGSA,A,3,3,78,4,77,75,19,2,69,31,28,,,2.0,1.0,1.7*00
$GPGBS,153559.00,12.313,9.586,11.703,,,,*4B
$GPGSV,3,1,12,03,77,066,40,78,79,259,34,04,58,185,43,77,45,046,36*73
$GPGSV,3,2,12,74,40,321,22,75,65,187,28,19,39,282,38,02,32,149,48*7B
$GPGSV,3,3,12,12,05,343,24,69,23,163,28,31,29,079,33,28,22,045,30*71
$GPZDA,153600.00,13,06,2024,00,00*67
$GPGGA,153600.00,5303.6935,N,00849.2178,E,1,10,1.04,3.17,M,44.478,M,,*62
$GPRMC,153600.00,A,5303.6935,N,00849.2178,E,0.7094,157.113,130624,2.7,E*61
$GPGSA,A,3,3,78,4,77,75,19,2,69,31,28,,,2.0,1.0,1.7*00
$GPGBS,153600.00,12.313,9.586,11.698,,,,*47
$GPGSV,3,1,12,03,77,066,40,78,79,259,34,04,58,185,43,77,45,046,36*73
$GPGSV,3,2,12,74,40,321,22,75,65,187,28,19,39,282,38,02,32,149,48*7B
$GPGSV,3,3,12,12,05,343,23,69,23,163,32,31,29,079,34,28,22,045,30*7A
$GPZDA,153601.00,13,06,2024,00,00*66
$GPGGA,153601.00,5303.6933,N,00849.2179,E,1,10,1.04,3.19,M,44.478,M,,*6A
$GPRMC,153601.00,A,5303.6933,N,00849.2179,E,0.7795,168.870,130624,2.7,E*61
$GPGSA,A,3,3,78,4,77,75,19,2,69,31,28,,,2.0,1.0,1.7*00
$GPGBS,153601.00,12.313,9.586,11.694,,,,*4A
$GPGSV,3,1,12,03,77,066,40,78,79,259,34,04,58,185,43,77,45,046,35*70
$GPGSV,3,2,12,74,40,321,23,75,65,187,28,19,39,282,38,02,32,149,48*7A
$GPGSV,3,3,12,12,05,343,23,69,23,163,33,31,29,079,35,28,22,045,30*7A
$GPZDA,153602.00,13,06,2024,00,00*65
$GPGGA,153602.00,5303.6931,N,00849.2179,E,1,10,1.04,3.24,M,44.478,M,,*65
$GPRMC,153602.00,A,5303.6931,N,00849.2179,E,0.8202,163.498,130624,2.7,E*65
$GPGSA,A,3,3,78,4,77,75,19,2,69,31,28,,,2.0,1.0,1.7*00
$GPGBS,153602.00,12.313,9.586,11.685,,,,*49
$GPGSV,3,1,12,03,77,066,40,78,79,259,34,04,58,185,43,77,45,046,35*70
$GPGSV,3,2,12,74,40,321,22,75,65,187,28,19,39,282,37,02,32,149,48*74
$GPGSV,3,3,12,12,05,343,23,69,23,163,33,31,29,079,34,28,22,045,30*7B
$GPZDA,153603.00,13,06,2024,00,00*64
$GPGGA,153603.00,5303.6929,N,00849.2180,E,1,10,1.04,3.27,M,44.478,M,,*68
$GPRMC,153603.00,A,5303.6929,N,00849.2180,E,0.8784,164.846,130624,2.7,E*68
$GPGSA,A,3,3,78,4,77,75,19,2,69,31,28,,,2.0,1.0,1.7*00
$GPGBS,153603.00,12.313,9.586,11.680,,,,*4D
$GPGSV,3,1,12,03,77,066,40,78,79,259,34,04,58,185,43,77,45,046,35*70
$GPGSV,3,2,12,74,40,321,22,75,65,187,28,19,39,282,38,02,32,149,48*7B
$GPGSV,3,3,12,12,05,343,23,69,23,163,32,31,29,079,35,28,22,045,30*7B
$GPZDA,153604.00,13,06,2024,00,00*63
$GPGGA,153604.00,5303.6926,N,00849.2181,E,1,10,1.04,3.27,M,44.478,M,,*61
$GPRMC,153604.00,A,5303.6926,N,00849.2181,E,0.9261,161.999,130624,2.7,E*68
$GPGSA,A,3,3,78,4,77,75,19,2,69,31,28,,,2.0,1.0,1.7*00
$GPGBS,153604.00,12.313,9.586,11.676,,,,*43
$GPGSV,3,1,12,03,77,066,40,78,79,259,34,04,58,185,43,77,45,046,35*70
$GPGSV,3,2,12,74,40,321,22,75,65,187,28,19,39,282,37,02,32,149,48*74
$GPGSV,3,3,12,12,05,343,24,69,23,163,32,31,29,079,34,28,22,045,30*7D
$GPZDA,153605.00,13,06,2024,00,00*62
$GPGGA,153605.00,5303.6923,N,00849.2182,E,1,10,1.04,3.22,M,44.478,M,,*63
$GPRMC,153605.00,A,5303.6923,N,00849.2182,E,0.9872,173.181,130624,2.7,E*65
$GPGSA,A,3,3,78,4,77,75,19,2,69,31,28,,,2.0,1.0,1.7*00
$GPGBS,153605.00,12.313,9.586,11.682,,,,*49
$GPGSV,3,1,12,03,77,066,40,78,79,259,34,04,58,185,43,77,45,046,35*70
$GPGSV,3,2,12,74,40,321,22,75,65,187,28,19,39,282,37,02,32,149,48*74
$GPGSV,3,3,12,12,05,343,25,69,23,163,32,31,29,079,34,28,22,045,31*7D
$GPZDA,153606.00,13,06,2024,00,00*61
$GPGGA,153606.00,5303.6920,N,00849.2182,E,1,10,1.04,3.19,M,44.478,M,,*6B
$GPRMC,153606.00,A,5303.6920,N,00849.2182,E,1.0396,174.392,130624,2.7,E*6B
$GPGSA,A,3,3,78,4,77,75,19,2,69,31,28,,,2.0,1.0,1.7*00
$GPGBS,153606.00,12.313,9.586,11.682,,,,*4A
$GPGSV,3,1,12,03,77,066,40,78,79,259,34,04,58,185,43,77,45,046,34*71
$GPGSV,3,2,12,74,40,321,22,75,65,187,28,19,39,282,37,02,32,149,48*74
$GPGSV,3,3,12,12,05,343,26,69,23,163,33,31,29,079,32,28,22,045,31*79
$GPZDA,153607.00,13,06,2024,00,00*60
$GPGGA,153607.00,5303.6916,N,00849.2182,E,1,10,1.04,3.21,M,44.478,M,,*64
$GPRMC,153607.00,A,5303.6916,N,00849.2182,E,0.9500,173.836,130624,2.7,E*6C
$GPGSA,A,3,3,78,4,77,75,19,2,69,31,28,,,2.0,1.0,1.7*00
$GPGBS,153607.00,12.313,9.586,11.681,,,,*48
$GPGSV,3,1,12,03,77,066,40,78,79,259,34,04,58,185,43,77,45,046,34*71
$GPGSV,3,2,12,74,40,321,22,75,65,187,28,19,39,282,37,02,32,149,48*74
$GPGSV,3,3,12,12,05,343,25,69,23,163,32,31,29,079,34,28,22,045,30*7C
$GPZDA,153608.00,13,06,2024,00,00*6F
$GPGGA,153608.00,5303.6914,N,00849.2183,E,1,10,1.04,3.18,M,44.478,M,,*62
$GPRMC,153608.00,A,5303.6914,N,00849.2183,E,0.9203,171.057,130624,2.7,E*69
$GPGSA,A,3,3,78,4,77,75,19,2,69,31,28,,,2.0,1.0,1.7*00
$GPGBS,153608.00,12.313,9.586,11.685,,,,*43
$GPGSV,3,1,12,03,77,066,40,78,79,259,33,04,58,185,43,77,45,046,34*76
$GPGSV,3,2,12,74,40,321,21,75,65,187,27,19,39,282,36,02,32,149,48*79
$GPGSV,3,3,12,12,05,343,26,69,23,163,32,31,29,079,35,28,22,045,31*7F
$GPZDA,153609.00,13,06,2024,00,00*6E
$GPGGA,153609.00,5303.6912,N,00849.2184,E,1,10,1.04,3.04,M,44.478,M,,*6F
$GPRMC,153609.00,A,5303.6912,N,00849.2184,E,0.5251,162.140,130624,2.7,E*67
$GPGSA,A,3,3,78,4,77,75,19,2,69,31,28,,,2.0,1.0,1.7*00
$GPGBS,153609.00,12.313,9.586,11.466,,,,*4D
$GPGSV,3,1,12,03,77,066,40,78,79,259,33,04,58,185,43,77,45,046,34*76
$GPGSV,3,2,12,74,40,321,21,75,65,187,27,19,39,282,37,02,32,149,48*78
$GPGSV,3,3,12,12,05,343,25,69,23,163,33,31,29,079,35,28,22,045,31*7D
$GPZDA,153610.00,13,06,2024,00,00*66
$GPGGA,153610.00,5303.6910,N,00849.2185,E,1,10,1.04,2.77,M,44.478,M,,*61
$GPRMC,153610.00,A,5303.6910,N,00849.2185,E,0.7277,173.553,130624,2.7,E*6C
$GPGSA,A,3,3,78,4,77,75,19,2,69,31,28,,,2.0,1.0,1.7*00
$GPGBS,153610.00,12.313,9.586,11.291,,,,*4B
$GPGSV,3,1,12,03,77,066,40,78,79,259,33,04,58,185,43,77,45,046,34*76
$GPGSV,3,2,12,74,40,321,21,75,65,187,27,19,39,282,37,02,32,149,48*78
$GPGSV,3,3,12,12,05,343,25,69,23,163,34,31,29,079,35,28,22,045,31*7A
$GPZDA,153611.00,13,06,2024,00,00*67
$GPGGA,153611.00,5303.6908,N,00849.2185,E,1,10,1.04,2.67,M,44.478,M,,*68
$GPRMC,153611.00,A,5303.6908,N,00849.2185,E,0.8506,163.097,130624,2.7,E*66
$GPGSA,A,3,3,78,4,77,75,19,2,69,31,28,,,2.0,1.0,1.7*00
$GPGBS,153611.00,12.313,9.586,11.143,,,,*46
$GPGSV,3,1,12,03,77,066,40,78,79,259,33,04,58,185,43,77,45,046,34*76
$GPGSV,3,2,12,74,40,321,21,75,65,187,27,19,39,282,37,02,32,149,48*78
$GPGSV,3,3,12,12,05,343,25,69,23,163,36,31,29,079,35,28,22,045,31*78
$GPZDA,153612.00,13,06,2024,00,00*64
$GPGGA,153612.00,5303.6905,N,00849.2186,E,1,10,1.04,2.73,M,44.478,M,,*60
$GPRMC,153612.00,A,5303.6905,N,00849.2186,E,0.9402,170.459,130624,2.7,E*6B
$GPGSA,A,3,3,78,4,77,75,19,2,69,31,28,,,2.0,1.0,1.7*00
$GPGBS,153612.00,12.313,9.586,11.018,,,,*4A
$GPGSV,3,1,12,03,77,066,40,78,79,259,33,04,58,185,43,77,45,046,34*76
$GPGSV,3,2,12,74,40,321,21,75,65,187,27,19,39,282,37,02,32,149,48*78
$GPGSV,3,3,12,12,05,343,25,69,23,163,36,31,29,079,35,28,22,045,30*79
$GPZDA,153613.00,13,06,2024,00,00*65
$GPGGA,153613.00,5303.6902,N,00849.2187,E,1,10,1.04,2.78,M,44.478,M,,*6C
$GPRMC,153613.00,A,5303.6902,N,00849.2187,E,0.8308,163.947,130624,2.7,E*60
$GPGSA,A,3,3,78,4,77,75,19,2,69,31,28,,,2.0,1.0,1.7*00
$GPGBS,153613.00,12.313,9.586,10.908,,,,*42
$GPGSV,3,1,12,03,77,066,40,78,79,259,33,04,58,185,43,77,45,046,34*76
$GPGSV,3,2,12,74,40,321,21,75,65,187,27,19,39,282,38,02,32,149,48*77
$GPGSV,3,3,12,12,05,343,25,69,23,163,36,31,29,079,35,28,22,045,30*79
$GPZDA,153614.00,13,06,2024,00,00*62
$GPGGA,153614.00,5303.6900,N,00849.2188,E,1,10,1.04,2.85,M,44.478,M,,*64
$GPRMC,153614.00,A,5303.6900,N,00849.2188,E,0.7358,174.649,130624,2.7,E*67
$GPGSA,A,3,3,78,4,77,75,19,2,69,31,28,,,2.0,1.0,1.7*00
$GPGBS,153614.00,12.313,9.586,10.855,,,,*4C
$GPGSV,3,1,12,03,77,066,40,78,79,259,33,04,58,185,43,77,45,046,34*76
$GPGSV,3,2,12,74,40,321,21,75,65,187,27,19,39,282,38,02,32,149,48*77
$GPGSV,3,3,12,12,05,343,25,69,23,163,35,31,29,079,36,28,22,045,30*79
